name,latitude,longitude
Amsterdam,52.3676,4.9041
Rotterdam,51.9225,4.47917
The Hague,52.0705,4.3007
Utrecht,52.0907,5.1214
Eindhoven,51.4416,5.4697
Groningen,53.2194,6.5665
Maastricht,50.8514,5.69
Leiden,52.1601,4.497
Delft,52.0116,4.3571
Zwolle,52.5168,6.0836
